$GPRMC,134805.00,V,,,,,,,300419,,,N*79

$GPVTG,,,,,,,,,N*30

$GPGGA,134805.00,,,,,0,00,99.99,,,,,,*6D

$GPGSA,A,1,,,,,,,,,,,,,99.99,99.99,99.99*30

$GPGSV,3,1,11,02,28,029,16,05,63,034,39,06,01,056,,12,74,245,25*72

$GPGSV,3,2,11,13,24,138,,15,23,176,18,19,12,105,13,21,05,268,*7D

$GPGSV,3,3,11,24,15,205,08,25,44,306,18,29,19,329,*44

$GPGLL,,,,,134805.00,V,N*41

$GPRMC,134806.00,A,1254.29675,N,07738.82158,E,0.863,,300419,,,A*7A

$GPVTG,,T,,M,0.863,N,1.599,K,A*2A

$GPGGA,134806.00,1254.29675,N,07738.82158,E,1,03,2.94,940.4,M,-86.6,M,,*74

$GPGSA,A,2,12,05,25,,,,,,,,,,3.11,2.94,1.00*0F

$GPGSV,3,1,11,02,28,029,19,05,63,034,39,06,01,056,,12,74,245,25*7D

$GPGSV,3,2,11,13,24,138,,15,23,176,18,19,12,105,10,21,05,268,*7E

$GPGSV,3,3,11,24,15,205,08,25,44,306,18,29,19,329,*44

$GPGLL,1254.29675,N,07738.82158,E,134806.00,A,A*61

$GPRMC,134807.00,A,1254.29744,N,07738.82147,E,0.375,,300419,,,A*7A

$GPVTG,,T,,M,0.375,N,0.695,K,A*28

$GPGGA,134807.00,1254.29744,N,07738.82147,E,1,03,2.94,940.3,M,-86.6,M,,*7F

$GPGSA,A,2,12,05,25,,,,,,,,,,3.11,2.94,1.00*0F

$GPGSV,3,1,11,02,28,029,19,05,63,034,39,06,01,056,19,12,74,245,25*75

$GPGSV,3,2,11,13,24,138,,15,23,176,18,19,12,105,08,21,05,268,*77

$GPGSV,3,3,11,24,15,205,08,25,44,306,19,29,19,329,*45

$GPGLL,1254.29744,N,07738.82147,E,134807.00,A,A*6D

$GPRMC,134808.00,A,1254.29820,N,07738.82102,E,0.864,,300419,,,A*72

$GPVTG,,T,,M,0.864,N,1.600,K,A*2E

$GPGGA,134808.00,1254.29820,N,07738.82102,E,1,03,2.94,940.5,M,-86.6,M,,*7A

$GPGSA,A,2,12,05,25,,,,,,,,,,3.11,2.94,1.00*0F

$GPGSV,3,1,11,02,28,029,18,05,63,034,39,06,01,056,18,12,74,245,25*75

$GPGSV,3,2,11,13,24,138,,15,23,176,18,19,12,105,08,21,05,268,*77

$GPGSV,3,3,11,24,15,205,09,25,44,306,19,29,19,329,*44

$GPGLL,1254.29820,N,07738.82102,E,134808.00,A,A*6E

$GPRMC,134809.00,A,1254.29859,N,07738.82074,E,0.178,,300419,,,A*79

$GPVTG,,T,,M,0.178,N,0.330,K,A*2D

$GPGGA,134809.00,1254.29859,N,07738.82074,E,1,03,2.94,940.5,M,-86.6,M,,*75

$GPGSA,A,2,12,05,25,,,,,,,,,,3.11,2.94,1.00*0F

$GPGSV,3,1,11,02,28,029,16,05,63,034,39,06,01,056,17,12,74,245,25*74

$GPGSV,3,2,11,13,24,138,,15,23,176,18,19,12,105,08,21,05,268,*77

$GPGSV,3,3,11,24,15,205,09,25,44,306,19,29,19,329,*44

$GPGLL,1254.29859,N,07738.82074,E,134809.00,A,A*61

$GPRMC,134810.00,A,1254.29639,N,07738.82093,E,1.725,,300419,,,A*7F

$GPVTG,,T,,M,1.725,N,3.194,K,A*2D

$GPGGA,134810.00,1254.29639,N,07738.82093,E,1,04,2.37,940.6,M,-86.6,M,,*71

$GPGSA,A,3,12,05,25,24,,,,,,,,,3.85,2.37,3.03*0D

$GPGSV,3,1,11,02,28,029,,05,63,034,38,06,01,056,16,12,74,245,25*73

$GPGSV,3,2,11,13,24,138,,15,23,176,18,19,12,105,,21,05,268,*7F

$GPGSV,3,3,11,24,15,205,09,25,44,306,18,29,19,329,*45

$GPGLL,1254.29639,N,07738.82093,E,134810.00,A,A*68

$GPRMC,134811.00,A,1254.29389,N,07738.82185,E,0.596,,300419,,,A*7D

$GPVTG,,T,,M,0.596,N,1.103,K,A*2A

$GPGGA,134811.00,1254.29389,N,07738.82185,E,1,04,2.37,940.7,M,-86.6,M,,*79

$GPGSA,A,3,12,05,25,24,,,,,,,,,3.84,2.37,3.03*0C

$GPGSV,3,1,11,02,28,029,,05,63,034,39,06,01,056,15,12,74,245,26*72

$GPGSV,3,2,11,13,24,138,,15,23,176,20,19,12,105,,21,05,268,*74

$GPGSV,3,3,11,24,15,205,10,25,44,306,18,29,19,329,*4D

$GPGLL,1254.29389,N,07738.82185,E,134811.00,A,A*61

$GPRMC,134812.00,A,1254.29234,N,07738.82220,E,0.524,,300419,,,A*7C

$GPVTG,,T,,M,0.524,N,0.971,K,A*2F

$GPGGA,134812.00,1254.29234,N,07738.82220,E,1,04,2.37,940.8,M,-86.6,M,,*7E

$GPGSA,A,3,12,05,25,24,,,,,,,,,3.84,2.37,3.03*0C

$GPGSV,3,1,11,02,28,029,,05,63,034,38,06,01,056,,12,74,245,25*74

$GPGSV,3,2,11,13,24,138,,15,23,176,19,19,12,105,20,21,05,268,*7C

$GPGSV,3,3,11,24,15,205,09,25,44,306,18,29,19,329,*45

$GPGLL,1254.29234,N,07738.82220,E,134812.00,A,A*69

$GPRMC,134813.00,A,1254.29385,N,07738.82106,E,1.601,,300419,,,A*74

$GPVTG,,T,,M,1.601,N,2.964,K,A*2C

$GPGGA,134813.00,1254.29385,N,07738.82106,E,1,03,2.94,940.8,M,-86.6,M,,*7D

$GPGSA,A,2,12,05,25,,,,,,,,,,3.11,2.94,1.00*0F

$GPGSV,3,1,11,02,28,029,,05,63,034,38,06,01,056,21,12,74,245,25*77

$GPGSV,3,2,11,13,24,138,,15,23,176,19,19,12,105,19,21,05,268,*76

$GPGSV,3,3,11,24,15,205,,25,44,306,18,29,19,329,*4C

$GPGLL,1254.29385,N,07738.82106,E,134813.00,A,A*64

$GPRMC,134814.00,A,1254.29483,N,07738.82050,E,1.463,,300419,,,A*76

$GPVTG,,T,,M,1.463,N,2.709,K,A*2F

$GPGGA,134814.00,1254.29483,N,07738.82050,E,1,03,2.94,940.9,M,-86.6,M,,*78

$GPGSA,A,2,12,05,25,,,,,,,,,,3.10,2.94,1.00*0E

$GPGSV,3,1,11,02,28,029,,05,63,034,38,06,01,056,,12,74,245,25*74

$GPGSV,3,2,11,13,24,138,,15,23,176,18,19,12,105,26,21,05,268,*7B

$GPGSV,3,3,11,24,15,205,,25,44,306,18,29,19,329,*4C

$GPGLL,1254.29483,N,07738.82050,E,134814.00,A,A*60

$GPRMC,134815.00,A,1254.29631,N,07738.81936,E,2.831,,300419,,,A*7E

$GPVTG,,T,,M,2.831,N,5.243,K,A*2B

$GPGGA,134815.00,1254.29631,N,07738.81936,E,1,03,2.94,940.9,M,-86.6,M,,*78

$GPGSA,A,2,12,05,25,,,,,,,,,,3.10,2.94,1.00*0E

$GPGSV,3,1,11,02,28,029,,05,63,034,37,06,01,056,,12,74,245,25*7B

$GPGSV,3,2,11,13,24,138,,15,23,176,16,19,12,105,22,21,05,268,*71

$GPGSV,3,3,11,24,15,205,16,25,44,306,17,29,19,329,*44

$GPGLL,1254.29631,N,07738.81936,E,134815.00,A,A*60

$GPRMC,134816.00,A,1254.29789,N,07738.81817,E,3.550,23.82,300419,,,A*53

$GPVTG,23.82,T,,M,3.550,N,6.575,K,A*04

$GPGGA,134816.00,1254.29789,N,07738.81817,E,1,03,2.94,940.8,M,-86.6,M,,*7A

$GPGSA,A,2,12,05,25,,,,,,,,,,3.10,2.94,1.00*0E

$GPGSV,3,1,11,02,28,029,,05,63,034,37,06,01,056,20,12,74,245,25*79

$GPGSV,3,2,11,13,24,138,,15,23,176,17,19,12,105,20,21,05,268,*72

$GPGSV,3,3,11,24,15,205,15,25,44,306,17,29,19,329,*47

$GPGLL,1254.29789,N,07738.81817,E,134816.00,A,A*63

$GPRMC,134817.00,A,1254.29909,N,07738.81745,E,3.197,,300419,,,A*76

$GPVTG,,T,,M,3.197,N,5.921,K,A*20

$GPGGA,134817.00,1254.29909,N,07738.81745,E,1,03,2.94,940.8,M,-86.6,M,,*75

$GPGSA,A,2,12,05,25,,,,,,,,,,3.10,2.94,1.00*0E

$GPGSV,3,1,11,02,28,029,,05,63,034,37,06,01,056,18,12,74,245,25*72

$GPGSV,3,2,11,13,24,138,,15,23,176,17,19,12,105,17,21,05,268,*76

$GPGSV,3,3,11,24,15,205,12,25,44,306,16,29,19,329,*41

$GPGLL,1254.29909,N,07738.81745,E,134817.00,A,A*6C

$GPRMC,134818.00,A,1254.30040,N,07738.81647,E,3.785,343.72,300419,,,A*6C

$GPVTG,343.72,T,,M,3.785,N,7.009,K,A*3B

$GPGGA,134818.00,1254.30040,N,07738.81647,E,1,03,2.94,940.8,M,-86.6,M,,*75

$GPGSA,A,2,12,05,25,,,,,,,,,,3.10,2.94,1.00*0E

$GPGSV,3,1,11,02,28,029,14,05,63,034,37,06,01,056,16,12,74,245,25*79

$GPGSV,3,2,11,13,24,138,,15,23,176,17,19,12,105,15,21,05,268,*74

$GPGSV,3,3,11,24,15,205,11,25,44,306,17,29,19,329,*43

$GPGLL,1254.30040,N,07738.81647,E,134818.00,A,A*6C

$GPRMC,134819.00,A,1254.29965,N,07738.81672,E,2.680,,300419,,,A*77

$GPVTG,,T,,M,2.680,N,4.964,K,A*20

$GPGGA,134819.00,1254.29965,N,07738.81672,E,1,04,2.37,940.9,M,-86.6,M,,*7B

$GPGSA,A,3,12,05,25,24,,,,,,,,,3.84,2.37,3.02*0D

$GPGSV,3,1,11,02,28,029,13,05,63,034,37,06,01,056,,12,74,245,24*78

$GPGSV,3,2,11,13,24,138,,15,23,176,18,19,12,105,15,21,05,268,*7B

$GPGSV,3,3,11,24,15,205,12,25,44,306,17,29,19,329,*40

$GPGLL,1254.29965,N,07738.81672,E,134819.00,A,A*6D

$GPRMC,134820.00,A,1254.29841,N,07738.81738,E,0.818,,300419,,,A*78

$GPVTG,,T,,M,0.818,N,1.516,K,A*21

$GPGGA,134820.00,1254.29841,N,07738.81738,E,1,04,2.37,940.9,M,-86.6,M,,*79

$GPGSA,A,3,12,05,25,24,,,,,,,,,3.84,2.37,3.02*0D

$GPGSV,3,1,11,02,28,029,14,05,63,034,37,06,01,056,,12,74,245,24*7F

$GPGSV,3,2,11,13,24,138,,15,23,176,17,19,12,105,13,21,05,268,*72

$GPGSV,3,3,11,24,15,205,13,25,44,306,17,29,19,329,*41

$GPGLL,1254.29841,N,07738.81738,E,134820.00,A,A*6F

$GPRMC,134821.00,A,1254.29815,N,07738.81771,E,0.833,,300419,,,A*7C

$GPVTG,,T,,M,0.833,N,1.542,K,A*29

$GPGGA,134821.00,1254.29815,N,07738.81771,E,1,04,2.37,940.9,M,-86.6,M,,*74

$GPGSA,A,3,12,05,25,24,,,,,,,,,3.84,2.37,3.02*0D

$GPGSV,3,1,11,02,28,029,15,05,63,034,37,06,01,056,21,12,74,245,25*7C

$GPGSV,3,2,11,13,24,138,,15,23,176,17,19,12,105,12,21,05,268,*73

$GPGSV,3,3,11,24,15,205,14,25,44,306,17,29,19,329,*46

$GPGLL,1254.29815,N,07738.81771,E,134821.00,A,A*62

$GPRMC,134822.00,A,1254.29675,N,07738.81893,E,2.062,,300419,,,A*7A

$GPVTG,,T,,M,2.062,N,3.819,K,A*26

$GPGGA,134822.00,1254.29675,N,07738.81893,E,1,04,2.37,941.0,M,-86.6,M,,*74

$GPGSA,A,3,12,05,25,24,,,,,,,,,3.84,2.37,3.02*0D

$GPGSV,3,1,11,02,28,029,16,05,63,034,38,06,01,056,,12,74,245,25*73

$GPGSV,3,2,11,13,24,138,,15,23,176,18,19,12,105,,21,05,268,*7F

$GPGSV,3,3,11,24,15,205,15,25,44,306,18,29,19,329,*48

$GPGLL,1254.29675,N,07738.81893,E,134822.00,A,A*6A

$GPRMC,134823.00,V,,,,,,,300419,,,N*7D

$GPVTG,,,,,,,,,N*30

$GPGGA,134823.00,,,,,0,00,99.99,,,,,,*69

$GPGSA,A,1,,,,,,,,,,,,,99.99,99.99,99.99*30

$GPGSV,3,1,11,02,28,029,,05,63,034,37,06,01,056,21,12,74,245,25*78

$GPGSV,3,2,11,13,24,138,,15,23,176,17,19,12,105,22,21,05,268,*70

$GPGSV,3,3,11,24,15,205,,25,44,306,18,29,19,329,*4C

$GPGLL,,,,,134823.00,V,N*45

$GPRMC,134824.00,V,,,,,,,300419,,,N*7A

$GPVTG,,,,,,,,,N*30

$GPGGA,134824.00,,,,,0,00,99.99,,,,,,*6E

$GPGSA,A,1,,,,,,,,,,,,,99.99,99.99,99.99*30

$GPGSV,3,1,11,02,28,029,,05,63,034,37,06,01,056,,12,74,245,25*7B

$GPGSV,3,2,11,13,24,138,,15,23,176,17,19,12,105,19,21,05,268,*78

$GPGSV,3,3,11,24,15,205,,25,44,306,19,29,19,329,*4D

$GPGLL,,,,,134824.00,V,N*42

$GPRMC,134825.00,V,,,,,,,300419,,,N*7B

$GPVTG,,,,,,,,,N*30

$GPGGA,134825.00,,,,,0,00,99.99,,,,,,*6F

$GPGSA,A,1,,,,,,,,,,,,,99.99,99.99,99.99*30

$GPGSV,3,1,11,02,28,029,,05,63,034,37,06,01,056,23,12,74,245,24*7B

$GPGSV,3,2,11,13,24,138,,15,23,176,16,19,12,105,,21,05,268,*71

$GPGSV,3,3,11,24,15,205,,25,44,306,18,29,19,329,*4C

$GPGLL,,,,,134825.00,V,N*43

$GPRMC,134826.00,A,1254.29671,N,07738.81889,E,0.200,,300419,,,A*75

$GPVTG,,T,,M,0.200,N,0.370,K,A*25

$GPGGA,134826.00,1254.29671,N,07738.81889,E,1,03,2.93,941.0,M,-86.6,M,,*76

$GPGSA,A,2,12,05,25,,,,,,,,,,3.10,2.93,1.00*09

$GPGSV,3,1,11,02,28,029,,05,63,034,37,06,01,056,20,12,74,245,25*79

$GPGSV,3,2,11,13,24,138,,15,23,176,17,19,12,105,15,21,05,268,*74

$GPGSV,3,3,11,24,15,205,,25,44,306,18,29,19,329,*4C

$GPGLL,1254.29671,N,07738.81889,E,134826.00,A,A*61

$GPRMC,134827.00,A,1254.29751,N,07738.81791,E,1.188,,300419,,,A*73

$GPVTG,,T,,M,1.188,N,2.200,K,A*23

$GPGGA,134827.00,1254.29751,N,07738.81791,E,1,03,2.93,941.0,M,-86.6,M,,*72

$GPGSA,A,2,12,05,25,,,,,,,,,,3.10,2.93,1.00*09

$GPGSV,3,1,11,02,28,029,16,05,63,034,38,06,01,056,17,12,74,245,24*74

$GPGSV,3,2,11,13,24,138,,15,23,176,17,19,12,105,21,21,05,268,*73

$GPGSV,3,3,11,24,15,205,,25,44,306,17,29,19,329,*43

$GPGLL,1254.29751,N,07738.81791,E,134827.00,A,A*65

$GPRMC,134828.00,A,1254.29850,N,07738.81700,E,2.358,,300419,,,A*76

$GPVTG,,T,,M,2.358,N,4.367,K,A*29

$GPGGA,134828.00,1254.29850,N,07738.81700,E,1,03,2.93,941.0,M,-86.6,M,,*7B

$GPGSA,A,2,12,05,25,,,,,,,,,,3.10,2.93,1.00*09

$GPGSV,3,1,11,02,28,029,16,05,63,034,38,06,01,056,,12,74,245,24*72

$GPGSV,3,2,11,13,24,138,,15,23,176,17,19,12,105,20,21,05,268,*72

$GPGSV,3,3,11,24,15,205,,25,44,306,15,29,19,329,*41

$GPGLL,1254.29850,N,07738.81700,E,134828.00,A,A*6C

